{
  "name": "東南アジア",
  "eras": {
    "ancient": {
      "name": "密林の神々",
      "fixed": [
        {
          "text": "アンコール・ワット (クメール王国)",
          "lat": 13.4,
          "lng": 103.9,
          "explanation": "クメール王国のヒンドゥー・仏教寺院。12世紀スーリヤヴァルマン2世が建設。世界最大の石造宗教建築。",
          "relatedTerms": [
            "クメール",
            "カンボジア",
            "スーリヤヴァルマン2世",
            "ヒンドゥー教",
            "世界遺産"
          ],
          "year": 1113,
          "sortLabel": "スールヤヴァルマン2世のアンコール・ワット建設"
        },
        {
          "text": "パガン (ビルマ初の統一王朝)",
          "lat": 20.8828,
          "lng": 95.1343,
          "explanation": "11世紀に成立したビルマ最初の統一王朝パガン朝の都。3000以上の仏塔・寺院が残る「仏塔の平原」。",
          "relatedTerms": [
            "パガン朝",
            "ビルマ",
            "上座部仏教",
            "アノーヤター",
            "ミャンマー"
          ],
          "year": 1044,
          "sortLabel": "アノーラタのパガン朝統一（ビルマ最初の王国）"
        },
        {
          "text": "アユタヤ (タイの古都)",
          "lat": 14.3706,
          "lng": 100.6773,
          "explanation": "14〜18世紀のタイの王都。ビルマ軍に3度攻撃され1767年に滅亡。日本人町も置かれ山田長政が活躍した。",
          "relatedTerms": [
            "アユタヤ朝",
            "タイ",
            "日本人町",
            "山田長政",
            "ビルマ"
          ],
          "year": 1350,
          "sortLabel": "タイのアユタヤ朝建国"
        },
        {
          "text": "シュリーヴィジャヤ (スマトラ島)",
          "lat": -3.0058,
          "lng": 104.7701,
          "explanation": "スマトラ島に栄えた海上交易王国。7〜13世紀、マラッカ海峡を支配し、仏教文化の中心だった。",
          "relatedTerms": [
            "スマトラ",
            "海上交易",
            "マラッカ海峡",
            "仏教",
            "東南アジア"
          ],
          "year": 700,
          "sortLabel": "シュリーヴィジャヤ王国の海上交易支配"
        },
        {
          "text": "ボロブドゥール (シャイレーンドラ朝)",
          "lat": -7.6081,
          "lng": 110.0553,
          "explanation": "シャイレーンドラ朝が建設した大乗仏教の石造遺跡。ジャワ島の仏教世界遺産。",
          "relatedTerms": [
            "シャイレーンドラ朝",
            "ジャワ",
            "大乗仏教",
            "インドネシア",
            "世界遺産"
          ],
          "year": 800,
          "sortLabel": "シャイレーンドラ朝のボロブドゥール建設"
        },
        {
          "text": "マジャパヒト王国 (ジャワ島東部)",
          "lat": -7.5142,
          "lng": 112.2145,
          "explanation": "14〜15世紀にジャワ島を中心に東南アジア広域を支配した最後の大ヒンドゥー王国。ガジャ・マダ宰相の下で全盛期を迎えた。",
          "relatedTerms": [
            "マジャパヒト",
            "ジャワ",
            "ヒンドゥー教",
            "ガジャ・マダ",
            "インドネシア"
          ],
          "year": 1293,
          "sortLabel": "マジャパヒト王国のジャワ支配"
        },
        {
          "text": "スコータイ (タイ最初の王国)",
          "lat": 17.0147,
          "lng": 99.8198,
          "explanation": "13世紀に成立したタイ人最初の独立王国。ラームカムヘーン王がタイ文字を制定。上座部仏教を国教とした。",
          "relatedTerms": [
            "スコータイ朝",
            "ラームカムヘーン",
            "タイ文字",
            "上座部仏教",
            "クメールからの独立"
          ],
          "year": 1238,
          "sortLabel": "スコータイ朝（タイ最初の王国）"
        },
        {
          "text": "チャンパ王国・ミーソン聖域 (ベトナム中部)",
          "lat": 15.7756,
          "lng": 108.1191,
          "explanation": "2〜17世紀にベトナム中部沿岸に栄えたチャム人のヒンドゥー王国チャンパ。ミーソン聖域は王家の祭祀場でレンガ造りの塔が林立する。",
          "relatedTerms": [
            "チャンパ",
            "チャム人",
            "ヒンドゥー教",
            "ミーソン",
            "ベトナム中部"
          ],
          "year": 400,
          "sortLabel": "チャンパ王国のミーソン聖域建設"
        },
        {
          "text": "タンロン (李朝ベトナムの首都)",
          "lat": 21.0285,
          "lng": 105.8542,
          "explanation": "1010年、李朝（リー朝）が「昇り龍」を意味するタンロンに遷都。中国支配から独立したベトナムの国家形成の拠点となった現在のハノイ。",
          "relatedTerms": [
            "タンロン",
            "李朝",
            "大越国",
            "ベトナム独立",
            "昇り龍"
          ],
          "year": 1010,
          "sortLabel": "李朝ベトナムのタンロン建都"
        },
        {
          "text": "アヌラーダプラ (スリランカ上座部仏教の聖地)",
          "lat": 8.3114,
          "lng": 80.4037,
          "explanation": "スリランカ（旧セイロン）の古都。紀元前3世紀にアショーカ王の息子が仏教を伝え、東南アジアへの上座部仏教伝播の出発点となった。",
          "relatedTerms": [
            "アヌラーダプラ",
            "スリランカ",
            "上座部仏教",
            "セイロン",
            "アショーカ王"
          ],
          "year": -300,
          "sortLabel": "スリランカへの上座部仏教伝来"
        }
      ]
    },
    "colonial": {
      "name": "香料の海",
      "fixed": [
        {
          "text": "バタヴィア (オランダの拠点)",
          "lat": -6.1992,
          "lng": 106.8004,
          "explanation": "オランダ東インド会社のアジア拠点。ジャワ島に建設され、香辛料貿易の中心。現ジャカルタ。",
          "relatedTerms": [
            "オランダ",
            "東インド会社",
            "ジャカルタ",
            "香辛料",
            "ジャワ"
          ],
          "year": 1619,
          "sortLabel": "オランダ東インド会社のバタヴィア建設"
        },
        {
          "text": "マラッカ (支配者が変遷した港)",
          "lat": 2.1602,
          "lng": 102.3209,
          "explanation": "マラッカ海峡の要衝。ポルトガル・オランダ・イギリスが相次いで支配。東西貿易の拠点。",
          "relatedTerms": [
            "マラッカ海峡",
            "ポルトガル",
            "オランダ",
            "海峡植民地",
            "交易"
          ],
          "year": 1511,
          "sortLabel": "ポルトガルのマラッカ征服"
        },
        {
          "text": "シンガポール (英のラッフルズが建設)",
          "lat": 1.3148,
          "lng": 103.8355,
          "explanation": "1819年ラッフルズが建設したイギリスの自由港。海峡植民地の中心として発展。",
          "relatedTerms": [
            "ラッフルズ",
            "イギリス",
            "海峡植民地",
            "自由港",
            "東南アジア"
          ],
          "year": 1819,
          "sortLabel": "ラッフルズのシンガポール建設（イギリス）"
        },
        {
          "text": "サイゴン (フランス領インドシナの重要都市)",
          "lat": 10.7701,
          "lng": 106.5748,
          "explanation": "フランスが1859年に占領したベトナム南部の都市。コーチシナ植民地の中心として発展。現ホーチミン市。",
          "relatedTerms": [
            "フランス",
            "コーチシナ",
            "インドシナ連邦",
            "ベトナム",
            "メコン川"
          ],
          "year": 1859,
          "sortLabel": "フランスのサイゴン占領とインドシナ進出"
        },
        {
          "text": "ラングーン (イギリス領ビルマ)",
          "lat": 16.9692,
          "lng": 96.4234,
          "explanation": "イギリスが3次にわたるビルマ戦争でビルマ王国を征服し設置したビルマ植民地の首都。インド帝国に編入された。",
          "relatedTerms": [
            "ビルマ",
            "イギリス",
            "インド帝国",
            "ビルマ戦争",
            "ヤンゴン"
          ],
          "year": 1852,
          "sortLabel": "イギリスのラングーン占領（ビルマ征服）"
        },
        {
          "text": "マニラ (スペイン統治フィリピンの中心)",
          "lat": 14.5995,
          "lng": 120.9842,
          "explanation": "1571年スペインがフィリピン総督府を置いた都市。メキシコ産銀と中国産絹を交換するマニラ・ガレオン貿易（太平洋貿易）の太平洋側の拠点。",
          "relatedTerms": [
            "スペイン",
            "フィリピン",
            "マニラ・ガレオン",
            "太平洋貿易",
            "総督府"
          ],
          "year": 1571,
          "sortLabel": "スペインのマニラ建設とフィリピン統治"
        },
        {
          "text": "フエ (グエン朝ベトナムの王都)",
          "lat": 16.4637,
          "lng": 107.5909,
          "explanation": "19世紀に統一ベトナムを実現したグエン（阮）朝の王都。フランス保護国時代も名目上の皇帝の宮廷が置かれた。",
          "relatedTerms": [
            "グエン朝",
            "フランス保護国",
            "インドシナ連邦",
            "阮朝",
            "ベトナム統一"
          ],
          "year": 1804,
          "sortLabel": "グエン朝によるベトナム統一とフエ都城"
        },
        {
          "text": "ホイアン (朱印船貿易の日本町)",
          "lat": 15.8794,
          "lng": 108.335,
          "explanation": "16〜17世紀に日本人商人が集住した「日本町（ニホンマチ）」が置かれた貿易港。鎖国令（1635年）で日本町は消滅。日本橋が現在も残る。",
          "relatedTerms": [
            "朱印船貿易",
            "日本町",
            "鎖国",
            "ベトナム",
            "日本橋"
          ],
          "year": 1600,
          "sortLabel": "ホイアンの日本町と朱印船貿易"
        }
      ]
    },
    "independence": {
      "name": "独立の夜明け",
      "fixed": [
        {
          "text": "ハノイ (ホーチミンのベトナム独立宣言)",
          "lat": 21.0278,
          "lng": 105.8342,
          "explanation": "1945年9月2日、ホーチミンがバーディン広場でベトナム民主共和国の独立宣言を読み上げた。アメリカ独立宣言・フランス革命宣言を引用した歴史的演説。",
          "relatedTerms": [
            "ホーチミン",
            "ベトナム民主共和国",
            "独立宣言",
            "バーディン広場",
            "インドシナ"
          ],
          "year": 1945,
          "sortLabel": "ホーチミンのベトナム独立宣言"
        },
        {
          "text": "ディエンビエンフー (フランス軍の敗北)",
          "lat": 21.3847,
          "lng": 103.0178,
          "explanation": "1954年、ヴォー・グエン・ザップ将軍率いるベトナム軍がフランス軍を包囲・撃破。フランスのインドシナ支配が終わりジュネーヴ協定が締結された。",
          "relatedTerms": [
            "ディエンビエンフーの戦い",
            "ジュネーヴ協定",
            "ヴォー・グエン・ザップ",
            "インドシナ戦争終結",
            "ベトナム南北分断"
          ],
          "year": 1954,
          "sortLabel": "ディエンビエンフーの戦い（フランス軍の敗北）"
        },
        {
          "text": "ジャカルタ (スカルノのインドネシア独立宣言)",
          "lat": 6.1783,
          "lng": 106.831,
          "explanation": "1945年8月17日、スカルノとハッタがインドネシア共和国独立を宣言。350年に及ぶオランダ植民地支配が終わった。「一国家・一民族・一言語」を掲げた。",
          "relatedTerms": [
            "スカルノ",
            "ハッタ",
            "インドネシア独立",
            "オランダ",
            "パンチャシラ"
          ],
          "year": 1945,
          "sortLabel": "スカルノのインドネシア独立宣言"
        },
        {
          "text": "バンドン (アジア・アフリカ会議)",
          "lat": -6.9175,
          "lng": 107.6191,
          "explanation": "1955年アジア・アフリカ29か国が参加したバンドン会議が開催された。反植民地主義・平和共存を掲げ、非同盟運動の出発点となった。ネルー・スカルノ・ナセルが主導。",
          "relatedTerms": [
            "バンドン会議",
            "アジア・アフリカ会議",
            "非同盟",
            "スカルノ",
            "反植民地主義"
          ],
          "year": 1955,
          "sortLabel": "バンドン会議（アジア・アフリカ会議）"
        },
        {
          "text": "プノンペン (カンボジア独立とシハヌーク)",
          "lat": 11.5564,
          "lng": 104.9282,
          "explanation": "1953年シハヌーク国王がフランスからカンボジアの完全独立を達成。中立外交を展開したが、後のベトナム戦争の余波でポル・ポト政権による悲劇が起きる。",
          "relatedTerms": [
            "シハヌーク",
            "カンボジア独立",
            "中立外交",
            "フランス",
            "インドシナ"
          ],
          "year": 1953,
          "sortLabel": "シハヌーク王のカンボジア独立"
        },
        {
          "text": "ビエンチャン (ラオス独立)",
          "lat": 17.9757,
          "lng": 102.6331,
          "explanation": "1953年フランスから独立したラオスの首都。インドシナ三国の中で最後に独立。ベトナム戦争中は「秘密の戦争」の舞台となり、史上最大の爆撃を受けた国となった。",
          "relatedTerms": [
            "ラオス",
            "フランス",
            "インドシナ",
            "秘密の戦争",
            "ベトナム戦争"
          ],
          "year": 1954,
          "sortLabel": "フランスからのラオス独立"
        },
        {
          "text": "クアラルンプール (マラヤ連邦の独立)",
          "lat": 3.139,
          "lng": 101.6869,
          "explanation": "1957年イギリスからマラヤ連邦として独立。1963年にマレーシアへと発展。スズとゴムの生産で経済成長を遂げ、ASEAN創設国の一つとなった。",
          "relatedTerms": [
            "マラヤ連邦",
            "マレーシア独立",
            "イギリス",
            "ASEAN",
            "スズ・ゴム"
          ],
          "year": 1957,
          "sortLabel": "マラヤ連邦のイギリスからの独立"
        }
      ]
    }
  },
  "bounds": [
    [
      -10,
      95
    ],
    [
      25,
      140
    ]
  ]
}