[
  {
    "year": -500,
    "label": "紀元前5世紀",
    "theme": "「枢軸の時代」— 東西で同時に知の革命が起きた",
    "events": [
      { "region": "europe",  "lat": 37.97, "lng": 23.73,
        "title": "アテネ民主政の全盛（ペリクレス時代）",
        "detail": "ペルシア戦争後、アテネが民主政・文化・哲学の中心地に。ソクラテス・プラトンへの流れが始まる。",
        "terms": ["直接民主政", "ペリクレス", "ソクラテス"],
        "patterns": ["外圧が改革を生む", "知の革命"] },
      { "region": "mideast", "lat": 32.54, "lng": 44.42,
        "title": "アケメネス朝ペルシアの最大版図",
        "detail": "ダレイオス1世が東はインダス川から西はエーゲ海まで支配。サトラップ制で広大な帝国を統治。",
        "terms": ["ダレイオス1世", "サトラップ", "王の道"],
        "patterns": ["帝国の拡大と崩壊", "交易で栄えた"] },
      { "region": "china",   "lat": 34.26, "lng": 108.93,
        "title": "春秋戦国時代・諸子百家の活躍",
        "detail": "周の権威が衰え、群雄が割拠。孔子・老子・孫子らが活躍した中国哲学の黄金期。",
        "terms": ["孔子", "儒家", "諸子百家", "春秋戦国"],
        "patterns": ["知の革命"] },
      { "region": "india",   "lat": 27.47, "lng": 85.31,
        "title": "ガウタマ＝シッダールタの生涯（仏教の成立）",
        "detail": "ネパール・ルンビニ生まれ。苦行・瞑想ののちブッダガヤで悟りを開き仏教を開く。",
        "terms": ["ガウタマ＝シッダールタ", "仏教", "ブッダ"],
        "patterns": ["知の革命", "宗教が統治を支えた"] }
    ]
  },
  {
    "year": -200,
    "label": "紀元前2世紀",
    "theme": "「帝国の時代」— 東西で大帝国が同時に誕生",
    "events": [
      { "region": "europe",  "lat": 41.90, "lng": 12.49,
        "title": "ローマ共和政の拡大・ポエニ戦争",
        "detail": "カルタゴとの三次にわたるポエニ戦争を経て地中海西部を掌握。ローマ覇権の基礎が固まる。",
        "terms": ["ポエニ戦争", "ハンニバル", "スキピオ"],
        "patterns": ["帝国の拡大と崩壊", "外圧が改革を生む"] },
      { "region": "mideast", "lat": 36.20, "lng": 37.16,
        "title": "セレウコス朝の衰退・パルティアの台頭",
        "detail": "アレクサンドロス死後に分裂したセレウコス朝が弱体化。イラン系のパルティアが東方に自立。",
        "terms": ["セレウコス朝", "パルティア", "アルサケス朝"],
        "patterns": ["帝国の拡大と崩壊", "交易で栄えた"] },
      { "region": "china",   "lat": 39.93, "lng": 116.39,
        "title": "前漢の成立・劉邦が中国を統一",
        "detail": "秦崩壊後の楚漢戦争を制した劉邦（高祖）が前漢を建国。儒学を官学化し中央集権を整備。",
        "terms": ["劉邦", "前漢", "郡国制"],
        "patterns": ["帝国の拡大と崩壊", "宗教が統治を支えた"] },
      { "region": "india",   "lat": 23.18, "lng": 77.39,
        "title": "マウリヤ朝の最大版図（アショーカ王）",
        "detail": "アショーカ王がカリンガ征服後に仏教に帰依。非暴力・法の支配（ダルマ）を石柱碑文で宣布。",
        "terms": ["アショーカ王", "マウリヤ朝", "ダルマ", "仏教保護"],
        "patterns": ["帝国の拡大と崩壊", "宗教が統治を支えた"] }
    ]
  },
  {
    "year": 600,
    "label": "7世紀",
    "theme": "「宗教拡大の時代」— イスラームの勃興と東アジアの隆盛",
    "events": [
      { "region": "mideast", "lat": 21.39, "lng": 39.85,
        "title": "イスラーム教の成立（ムハンマドのヒジュラ）",
        "detail": "622年、ムハンマドがメッカからメディナへ移住（ヒジュラ）。イスラーム暦元年。急速に半島を統一。",
        "terms": ["ムハンマド", "ヒジュラ", "イスラーム", "クルアーン"],
        "patterns": ["宗教が統治を支えた", "知の革命"] },
      { "region": "china",   "lat": 34.27, "lng": 108.93,
        "title": "唐の建国・東アジア文化圏の形成",
        "detail": "618年、李淵が隋を継いで唐を建国。律令制・科挙が整備され、日本・朝鮮・ベトナムへ伝播。",
        "terms": ["唐", "李世民（太宗）", "律令制", "科挙"],
        "patterns": ["帝国の拡大と崩壊", "交易で栄えた"] },
      { "region": "europe",  "lat": 48.85, "lng": 2.35,
        "title": "フランク王国の台頭",
        "detail": "メロヴィング朝後期。ローマ教会との連携を強めたフランク王国が西欧の中心勢力へ成長。",
        "terms": ["メロヴィング朝", "フランク王国", "カトリック改宗"],
        "patterns": ["宗教が統治を支えた"] },
      { "region": "india",   "lat": 28.61, "lng": 77.21,
        "title": "ヴァルダナ朝（ハルシャ王）の統一",
        "detail": "606〜647年、ハルシャ王が北インドを統一。仏教を保護しつつヒンドゥー教も尊重。玄奘がインドを訪問。",
        "terms": ["ハルシャ王", "ヴァルダナ朝", "玄奘"],
        "patterns": ["帝国の拡大と崩壊", "宗教が統治を支えた"] }
    ]
  },
  {
    "year": 1200,
    "label": "13世紀",
    "theme": "「モンゴルの衝撃」— ユーラシア全体を揺るがした大征服",
    "events": [
      { "region": "china",   "lat": 47.91, "lng": 106.88,
        "title": "チンギス＝ハンによるモンゴル帝国成立",
        "detail": "1206年、チンギス＝ハンが全モンゴルを統一し大ハーン即位。中国・中央アジア・ペルシアへ怒涛の征服開始。",
        "terms": ["チンギス＝ハン", "モンゴル帝国", "クリルタイ"],
        "patterns": ["帝国の拡大と崩壊", "交易で栄えた"] },
      { "region": "mideast", "lat": 33.34, "lng": 44.40,
        "title": "バグダード陥落（アッバース朝の滅亡）",
        "detail": "1258年、フラグ率いるモンゴル軍がバグダードを包囲・略奪しカリフを処刑。イスラーム黄金時代の終焉。",
        "terms": ["フラグ", "アッバース朝滅亡", "イル＝ハン国"],
        "patterns": ["帝国の拡大と崩壊", "外圧が改革を生む"] },
      { "region": "europe",  "lat": 50.06, "lng": 19.94,
        "title": "モンゴルのヨーロッパ侵攻（ワールシュタットの戦い）",
        "detail": "1241年、バトゥ率いるモンゴル軍がポーランド・ハンガリーを席巻。キプチャク＝ハン国を建設。",
        "terms": ["バトゥ", "ワールシュタットの戦い", "キプチャク＝ハン国"],
        "patterns": ["帝国の拡大と崩壊", "外圧が改革を生む"] },
      { "region": "africa",  "lat": 12.65, "lng": -8.00,
        "title": "マリ王国の全盛（スンジャタ＝ケイタ）",
        "detail": "13世紀、スンジャタ＝ケイタがソンガイを破りマリ王国を建設。金・塩の交易で繁栄。",
        "terms": ["マリ王国", "スンジャタ", "トランスサハラ交易"],
        "patterns": ["交易で栄えた"] }
    ]
  },
  {
    "year": 1500,
    "label": "16世紀",
    "theme": "「大航海と宗教改革」— ヨーロッパが世界をつないだ世紀",
    "events": [
      { "region": "europe",        "lat": 51.51, "lng": -0.13,
        "title": "宗教改革（ルターの95か条の論題）",
        "detail": "1517年、ルターが贖宥状販売を批判し宗教改革を開始。カトリックとプロテスタントの分裂が始まる。",
        "terms": ["ルター", "宗教改革", "プロテスタント", "95か条の論題"],
        "patterns": ["外圧が改革を生む", "知の革命"] },
      { "region": "latin_america", "lat": -13.53, "lng": -71.97,
        "title": "スペインによるインカ帝国征服",
        "detail": "1533年、ピサロがインカ皇帝アタワルパを処刑しインカ帝国を滅ぼす。銀山開発が始まる。",
        "terms": ["ピサロ", "インカ帝国", "アタワルパ", "ポトシ銀山"],
        "patterns": ["帝国の拡大と崩壊", "交易で栄えた"] },
      { "region": "mideast",       "lat": 41.01, "lng": 28.97,
        "title": "オスマン帝国の最大版図（スレイマン1世）",
        "detail": "スレイマン1世がハンガリーを征服し（1526年）、ウィーンに迫る。東地中海・北アフリカを支配。",
        "terms": ["スレイマン1世", "オスマン帝国", "プレヴェザの海戦"],
        "patterns": ["帝国の拡大と崩壊", "交易で栄えた"] },
      { "region": "china",         "lat": 39.93, "lng": 116.39,
        "title": "明の統治と倭寇・銀経済の発展",
        "detail": "永楽帝死後、海禁政策が強化。16世紀には倭寇が活発化し、日本銀が中国経済に流入。一条鞭法で銀納化。",
        "terms": ["明", "海禁政策", "倭寇", "一条鞭法"],
        "patterns": ["交易で栄えた", "外圧が改革を生む"] }
    ]
  }
]
