[
  {
    "year": -500,
    "label": "紀元前5世紀",
    "theme": "「枢軸の時代」— 東西で同時に知の革命が起きた",
    "events": [
      {
        "region": "europe",
        "lat": 37.97,
        "lng": 23.73,
        "title": "アテネ民主政の全盛（ペリクレス時代）",
        "detail": "ペルシア戦争後、アテネが民主政・文化・哲学の中心地に。ソクラテス・プラトンへの流れが始まる。",
        "terms": [
          "直接民主政",
          "ペリクレス",
          "ソクラテス"
        ],
        "patterns": [
          "外圧が改革を生む",
          "知の革命"
        ]
      },
      {
        "region": "mideast",
        "lat": 32.54,
        "lng": 44.42,
        "title": "アケメネス朝ペルシアの最大版図",
        "detail": "ダレイオス1世が東はインダス川から西はエーゲ海まで支配。サトラップ制で広大な帝国を統治。",
        "terms": [
          "ダレイオス1世",
          "サトラップ",
          "王の道"
        ],
        "patterns": [
          "帝国の拡大と崩壊",
          "交易で栄えた"
        ]
      },
      {
        "region": "china",
        "lat": 34.26,
        "lng": 108.93,
        "title": "春秋戦国時代・諸子百家の活躍",
        "detail": "周の権威が衰え、群雄が割拠。孔子・老子・孫子らが活躍した中国哲学の黄金期。",
        "terms": [
          "孔子",
          "儒家",
          "諸子百家",
          "春秋戦国"
        ],
        "patterns": [
          "知の革命"
        ]
      },
      {
        "region": "india",
        "lat": 27.47,
        "lng": 85.31,
        "title": "ガウタマ＝シッダールタの生涯（仏教の成立）",
        "detail": "ネパール・ルンビニ生まれ。苦行・瞑想ののちブッダガヤで悟りを開き仏教を開く。",
        "terms": [
          "ガウタマ＝シッダールタ",
          "仏教",
          "ブッダ"
        ],
        "patterns": [
          "知の革命",
          "宗教が統治を支えた"
        ]
      }
    ]
  },
  {
    "year": -330,
    "label": "紀元前4〜3世紀",
    "theme": "「征服と融合」— アレクサンドロスと秦始皇帝が世界を塗り替えた",
    "events": [
      {
        "region": "europe",
        "lat": 40.63,
        "lng": 22.95,
        "title": "アレクサンドロスの東征",
        "detail": "マケドニア王アレクサンドロスがペルシア・エジプト・インド北西部まで遠征。ギリシャ文化とオリエント文化が融合したヘレニズム文化圏を形成。",
        "terms": [
          "アレクサンドロス",
          "ヘレニズム",
          "アレクサンドリア"
        ],
        "patterns": [
          "帝国の拡大と崩壊",
          "交易で栄えた"
        ]
      },
      {
        "region": "mideast",
        "lat": 29.93,
        "lng": 52.89,
        "title": "アケメネス朝の滅亡（ペルセポリス炎上）",
        "detail": "紀元前330年、アレクサンドロスがペルセポリスを焼き払いアケメネス朝が滅亡。ヘレニズム王国群が後継となる。",
        "terms": [
          "ペルセポリス",
          "アレクサンドロス",
          "セレウコス朝"
        ],
        "patterns": [
          "帝国の拡大と崩壊",
          "外圧が改革を生む"
        ]
      },
      {
        "region": "china",
        "lat": 34.26,
        "lng": 108.93,
        "title": "秦の中国統一（始皇帝）",
        "detail": "紀元前221年、秦王政が六国を滅ぼし中国統一。皇帝号を制定し、郡県制・度量衡統一・万里の長城修築を行った。",
        "terms": [
          "始皇帝",
          "郡県制",
          "焚書坑儒",
          "万里の長城"
        ],
        "patterns": [
          "帝国の拡大と崩壊"
        ]
      },
      {
        "region": "india",
        "lat": 25.61,
        "lng": 85.14,
        "title": "マウリヤ朝の統一（チャンドラグプタ）",
        "detail": "チャンドラグプタがアレクサンドロス死後の混乱を利用してマウリヤ朝を建国。インド初の統一帝国。孫のアショーカ王が仏教を保護。",
        "terms": [
          "チャンドラグプタ",
          "マウリヤ朝",
          "アショーカ王"
        ],
        "patterns": [
          "帝国の拡大と崩壊",
          "宗教が統治を支えた"
        ]
      }
    ]
  },
  {
    "year": -200,
    "label": "紀元前2世紀",
    "theme": "「帝国の時代」— 東西で大帝国が同時に誕生",
    "events": [
      {
        "region": "europe",
        "lat": 41.9,
        "lng": 12.49,
        "title": "ローマ共和政の拡大・ポエニ戦争",
        "detail": "カルタゴとの三次にわたるポエニ戦争を経て地中海西部を掌握。ローマ覇権の基礎が固まる。",
        "terms": [
          "ポエニ戦争",
          "ハンニバル",
          "スキピオ"
        ],
        "patterns": [
          "帝国の拡大と崩壊",
          "外圧が改革を生む"
        ]
      },
      {
        "region": "mideast",
        "lat": 36.2,
        "lng": 37.16,
        "title": "セレウコス朝の衰退・パルティアの台頭",
        "detail": "アレクサンドロス死後に分裂したセレウコス朝が弱体化。イラン系のパルティアが東方に自立。",
        "terms": [
          "セレウコス朝",
          "パルティア",
          "アルサケス朝"
        ],
        "patterns": [
          "帝国の拡大と崩壊",
          "交易で栄えた"
        ]
      },
      {
        "region": "china",
        "lat": 39.93,
        "lng": 116.39,
        "title": "前漢の成立・劉邦が中国を統一",
        "detail": "秦崩壊後の楚漢戦争を制した劉邦（高祖）が前漢を建国。儒学を官学化し中央集権を整備。",
        "terms": [
          "劉邦",
          "前漢",
          "郡国制"
        ],
        "patterns": [
          "帝国の拡大と崩壊",
          "宗教が統治を支えた"
        ]
      },
      {
        "region": "india",
        "lat": 23.18,
        "lng": 77.39,
        "title": "マウリヤ朝の最大版図（アショーカ王）",
        "detail": "アショーカ王がカリンガ征服後に仏教に帰依。非暴力・法の支配（ダルマ）を石柱碑文で宣布。",
        "terms": [
          "アショーカ王",
          "マウリヤ朝",
          "ダルマ",
          "仏教保護"
        ],
        "patterns": [
          "帝国の拡大と崩壊",
          "宗教が統治を支えた"
        ]
      }
    ]
  },
  {
    "year": 100,
    "label": "1〜2世紀",
    "theme": "「パクスの時代」— ローマと漢が同時に黄金期を迎えた",
    "events": [
      {
        "region": "europe",
        "lat": 41.9,
        "lng": 12.49,
        "title": "ローマ帝国の全盛（五賢帝時代）",
        "detail": "トラヤヌス・ハドリアヌスらの五賢帝期にローマが最大版図を達成。「パクス・ロマーナ（ローマの平和）」が約200年続く。",
        "terms": [
          "五賢帝",
          "パクス・ロマーナ",
          "トラヤヌス",
          "コロッセウム"
        ],
        "patterns": [
          "帝国の拡大と崩壊",
          "交易で栄えた"
        ]
      },
      {
        "region": "mideast",
        "lat": 36.2,
        "lng": 59.6,
        "title": "パルティアの繁栄・シルクロードの中継",
        "detail": "ローマと漢の間に位置するパルティアがシルクロードの中継貿易で莫大な富を得た。東西を結ぶ交易の要衝として繁栄。",
        "terms": [
          "パルティア",
          "シルクロード",
          "中継貿易"
        ],
        "patterns": [
          "交易で栄えた"
        ]
      },
      {
        "region": "china",
        "lat": 34.26,
        "lng": 108.93,
        "title": "後漢の全盛・シルクロード開通",
        "detail": "班超が西域を経営し、ローマへの使節（大秦国）派遣の記録も。仏教が中国に伝来し、紙・地震計などが発明された。",
        "terms": [
          "班超",
          "後漢",
          "仏教伝来",
          "製紙法"
        ],
        "patterns": [
          "交易で栄えた",
          "宗教が統治を支えた"
        ]
      },
      {
        "region": "india",
        "lat": 34.53,
        "lng": 69.21,
        "title": "クシャーナ朝の全盛・大乗仏教の発展",
        "detail": "カニシカ王がガンダーラを中心に統治。ギリシャ彫刻の影響を受けたガンダーラ美術が開花し、大乗仏教が中央アジア・中国へ伝播。",
        "terms": [
          "クシャーナ朝",
          "カニシカ王",
          "ガンダーラ美術",
          "大乗仏教"
        ],
        "patterns": [
          "交易で栄えた",
          "宗教が統治を支えた"
        ]
      }
    ]
  },
  {
    "year": 600,
    "label": "7世紀",
    "theme": "「宗教拡大の時代」— イスラームの勃興と東アジアの隆盛",
    "events": [
      {
        "region": "mideast",
        "lat": 21.39,
        "lng": 39.85,
        "title": "イスラーム教の成立（ムハンマドのヒジュラ）",
        "detail": "622年、ムハンマドがメッカからメディナへ移住（ヒジュラ）。イスラーム暦元年。急速に半島を統一。",
        "terms": [
          "ムハンマド",
          "ヒジュラ",
          "イスラーム",
          "クルアーン"
        ],
        "patterns": [
          "宗教が統治を支えた",
          "知の革命"
        ]
      },
      {
        "region": "china",
        "lat": 34.27,
        "lng": 108.93,
        "title": "唐の建国・東アジア文化圏の形成",
        "detail": "618年、李淵が隋を継いで唐を建国。律令制・科挙が整備され、日本・朝鮮・ベトナムへ伝播。",
        "terms": [
          "唐",
          "李世民（太宗）",
          "律令制",
          "科挙"
        ],
        "patterns": [
          "帝国の拡大と崩壊",
          "交易で栄えた"
        ]
      },
      {
        "region": "europe",
        "lat": 48.85,
        "lng": 2.35,
        "title": "フランク王国の台頭",
        "detail": "メロヴィング朝後期。ローマ教会との連携を強めたフランク王国が西欧の中心勢力へ成長。",
        "terms": [
          "メロヴィング朝",
          "フランク王国",
          "カトリック改宗"
        ],
        "patterns": [
          "宗教が統治を支えた"
        ]
      },
      {
        "region": "india",
        "lat": 28.61,
        "lng": 77.21,
        "title": "ヴァルダナ朝（ハルシャ王）の統一",
        "detail": "606〜647年、ハルシャ王が北インドを統一。仏教を保護しつつヒンドゥー教も尊重。玄奘がインドを訪問。",
        "terms": [
          "ハルシャ王",
          "ヴァルダナ朝",
          "玄奘"
        ],
        "patterns": [
          "帝国の拡大と崩壊",
          "宗教が統治を支えた"
        ]
      }
    ]
  },
  {
    "year": 800,
    "label": "8〜9世紀",
    "theme": "「二つの黄金時代」— カール大帝とアッバース朝が同時に最盛期を迎えた",
    "events": [
      {
        "region": "europe",
        "lat": 50.77,
        "lng": 6.09,
        "title": "カール大帝の戴冠・西欧世界の誕生",
        "detail": "800年、カール大帝がローマ教皇から西ローマ皇帝として戴冠。フランク王国がヨーロッパを統合し、キリスト教文化圏が確立された。",
        "terms": [
          "カール大帝",
          "戴冠",
          "フランク王国",
          "封建制"
        ],
        "patterns": [
          "宗教が統治を支えた",
          "帝国の拡大と崩壊"
        ]
      },
      {
        "region": "mideast",
        "lat": 33.34,
        "lng": 44.4,
        "title": "アッバース朝の黄金期・バグダードの繁栄",
        "detail": "ハールーン・アッラシードの治世にバグダードが世界最大の都市に。ギリシャ哲学の翻訳運動が始まり、イスラーム科学・数学が開花。",
        "terms": [
          "アッバース朝",
          "バグダード",
          "翻訳運動",
          "ハールーン・アッラシード"
        ],
        "patterns": [
          "交易で栄えた",
          "知の革命"
        ]
      },
      {
        "region": "china",
        "lat": 34.27,
        "lng": 108.93,
        "title": "唐の衰退・安史の乱後の変容",
        "detail": "755〜763年の安史の乱で唐が衰退。中央集権が崩れ、節度使が台頭。ウイグルの援助で辛うじて存続するも内部分裂が進む。",
        "terms": [
          "安史の乱",
          "玄宗",
          "節度使",
          "ウイグル"
        ],
        "patterns": [
          "帝国の拡大と崩壊",
          "外圧が改革を生む"
        ]
      },
      {
        "region": "africa",
        "lat": 15.55,
        "lng": -13.17,
        "title": "ガーナ王国の全盛・金と塩の貿易",
        "detail": "西アフリカのガーナ王国がサハラ交易（金・塩の交換）で繁栄。イスラーム商人との交流で文化的発展を遂げた。",
        "terms": [
          "ガーナ王国",
          "金塩交易",
          "サハラ交易",
          "トランスサハラ"
        ],
        "patterns": [
          "交易で栄えた"
        ]
      }
    ]
  },
  {
    "year": 1000,
    "label": "10〜11世紀",
    "theme": "「宗教の衝突前夜」— 十字軍・セルジューク・宋が世界を揺るがす直前",
    "events": [
      {
        "region": "europe",
        "lat": 41.01,
        "lng": 28.97,
        "title": "東西教会の大分裂・十字軍前夜",
        "detail": "1054年、キリスト教がローマ・カトリックとギリシャ正教に分裂。セルジューク朝のエルサレム支配がキリスト教徒を刺激し十字軍の遠因となる。",
        "terms": [
          "東西教会分裂",
          "ローマ教皇",
          "十字軍",
          "聖地巡礼"
        ],
        "patterns": [
          "宗教が統治を支えた",
          "外圧が改革を生む"
        ]
      },
      {
        "region": "mideast",
        "lat": 37.87,
        "lng": 32.49,
        "title": "セルジューク朝の台頭・マンジケルトの戦い",
        "detail": "1071年、セルジューク朝がビザンツ軍をマンジケルトで破りアナトリアを掌握。ビザンツ帝国が教皇に救援を要請し十字軍運動の直接の引き金となった。",
        "terms": [
          "セルジューク朝",
          "マンジケルトの戦い",
          "ビザンツ帝国",
          "トルコ人"
        ],
        "patterns": [
          "帝国の拡大と崩壊",
          "外圧が改革を生む"
        ]
      },
      {
        "region": "china",
        "lat": 34.79,
        "lng": 114.31,
        "title": "宋の成立・文治主義と経済革命",
        "detail": "960年に趙匡胤が宋を建国。文治主義で武将の権力を抑制。商業が発達し紙幣（交子）・羅針盤・火薬・印刷術が普及した。",
        "terms": [
          "宋",
          "趙匡胤",
          "文治主義",
          "交子",
          "四大発明"
        ],
        "patterns": [
          "交易で栄えた",
          "知の革命"
        ]
      },
      {
        "region": "africa",
        "lat": 16.77,
        "lng": -3,
        "title": "マリ王国の形成期・サハラ交易の繁栄",
        "detail": "マリ王国がガーナ王国の後継として台頭。トンブクトゥがイスラーム学問・金塩交易の拠点として発展し始める。",
        "terms": [
          "マリ王国",
          "トンブクトゥ",
          "金塩交易",
          "イスラーム"
        ],
        "patterns": [
          "交易で栄えた",
          "宗教が統治を支えた"
        ]
      }
    ]
  },
  {
    "year": 1200,
    "label": "13世紀",
    "theme": "「モンゴルの衝撃」— ユーラシア全体を揺るがした大征服",
    "events": [
      {
        "region": "china",
        "lat": 47.91,
        "lng": 106.88,
        "title": "チンギス＝ハンによるモンゴル帝国成立",
        "detail": "1206年、チンギス＝ハンが全モンゴルを統一し大ハーン即位。中国・中央アジア・ペルシアへ怒涛の征服開始。",
        "terms": [
          "チンギス＝ハン",
          "モンゴル帝国",
          "クリルタイ"
        ],
        "patterns": [
          "帝国の拡大と崩壊",
          "交易で栄えた"
        ]
      },
      {
        "region": "mideast",
        "lat": 33.34,
        "lng": 44.4,
        "title": "バグダード陥落（アッバース朝の滅亡）",
        "detail": "1258年、フラグ率いるモンゴル軍がバグダードを包囲・略奪しカリフを処刑。イスラーム黄金時代の終焉。",
        "terms": [
          "フラグ",
          "アッバース朝滅亡",
          "イル＝ハン国"
        ],
        "patterns": [
          "帝国の拡大と崩壊",
          "外圧が改革を生む"
        ]
      },
      {
        "region": "europe",
        "lat": 50.06,
        "lng": 19.94,
        "title": "モンゴルのヨーロッパ侵攻（ワールシュタットの戦い）",
        "detail": "1241年、バトゥ率いるモンゴル軍がポーランド・ハンガリーを席巻。キプチャク＝ハン国を建設。",
        "terms": [
          "バトゥ",
          "ワールシュタットの戦い",
          "キプチャク＝ハン国"
        ],
        "patterns": [
          "帝国の拡大と崩壊",
          "外圧が改革を生む"
        ]
      },
      {
        "region": "africa",
        "lat": 12.65,
        "lng": -8,
        "title": "マリ王国の全盛（スンジャタ＝ケイタ）",
        "detail": "13世紀、スンジャタ＝ケイタがソンガイを破りマリ王国を建設。金・塩の交易で繁栄。",
        "terms": [
          "マリ王国",
          "スンジャタ",
          "トランスサハラ交易"
        ],
        "patterns": [
          "交易で栄えた"
        ]
      }
    ]
  },
  {
    "year": 1400,
    "label": "14〜15世紀",
    "theme": "「黒死病後の再生」— 疫病と征服の後に新たな時代が芽吹いた",
    "events": [
      {
        "region": "europe",
        "lat": 43.77,
        "lng": 11.25,
        "title": "ルネサンスの始まり・黒死病後のフィレンツェ",
        "detail": "黒死病（14世紀）でヨーロッパ人口の1/3が死亡。フィレンツェのメディチ家が芸術を保護し、ダ・ヴィンチ・ミケランジェロが活躍するルネサンスが開花。",
        "terms": [
          "ルネサンス",
          "黒死病",
          "メディチ家",
          "ダ・ヴィンチ"
        ],
        "patterns": [
          "知の革命",
          "外圧が改革を生む"
        ]
      },
      {
        "region": "mideast",
        "lat": 40.19,
        "lng": 29.06,
        "title": "オスマン帝国の台頭（ブルサからコンスタンティノープルへ）",
        "detail": "オスマン帝国がバルカン半島を征服し、1453年コンスタンティノープルを陥落させビザンツ帝国を滅ぼした。東地中海の覇者となる。",
        "terms": [
          "オスマン帝国",
          "メフメト2世",
          "コンスタンティノープル陥落",
          "1453年"
        ],
        "patterns": [
          "帝国の拡大と崩壊",
          "外圧が改革を生む"
        ]
      },
      {
        "region": "china",
        "lat": 31.23,
        "lng": 121.47,
        "title": "鄭和の大航海・明の海洋進出",
        "detail": "永楽帝の命を受けた鄭和が1405〜33年に7回の大航海を実施。東南アジア・インド・アラビア・アフリカ東岸まで到達し朝貢関係を拡大。",
        "terms": [
          "鄭和",
          "永楽帝",
          "朝貢",
          "南海遠征"
        ],
        "patterns": [
          "交易で栄えた",
          "帝国の拡大と崩壊"
        ]
      },
      {
        "region": "africa",
        "lat": 16.77,
        "lng": -3,
        "title": "マリ王国衰退・ソンガイ帝国の台頭",
        "detail": "マリ王国が内紛で衰退し、ソンガイ帝国が台頭。トンブクトゥが世界最大のイスラーム学問都市として栄え続けた。",
        "terms": [
          "ソンガイ帝国",
          "トンブクトゥ",
          "イスラーム学問",
          "マリ王国衰退"
        ],
        "patterns": [
          "交易で栄えた",
          "宗教が統治を支えた"
        ]
      },
      {
        "region": "india",
        "lat": 15.34,
        "lng": 76.46,
        "title": "ヴィジャヤナガル王国の全盛",
        "detail": "デカン高原南部のヴィジャヤナガル王国がイスラーム諸国に対抗しヒンドゥー文化を守護。鄭和の記録にも登場する豊かな都市を持った。",
        "terms": [
          "ヴィジャヤナガル王国",
          "ヒンドゥー文化",
          "デカン高原"
        ],
        "patterns": [
          "宗教が統治を支えた",
          "外圧が改革を生む"
        ]
      }
    ]
  },
  {
    "year": 1500,
    "label": "16世紀",
    "theme": "「大航海と宗教改革」— ヨーロッパが世界をつないだ世紀",
    "events": [
      {
        "region": "europe",
        "lat": 51.51,
        "lng": -0.13,
        "title": "宗教改革（ルターの95か条の論題）",
        "detail": "1517年、ルターが贖宥状販売を批判し宗教改革を開始。カトリックとプロテスタントの分裂が始まる。",
        "terms": [
          "ルター",
          "宗教改革",
          "プロテスタント",
          "95か条の論題"
        ],
        "patterns": [
          "外圧が改革を生む",
          "知の革命"
        ]
      },
      {
        "region": "latin_america",
        "lat": -13.53,
        "lng": -71.97,
        "title": "スペインによるインカ帝国征服",
        "detail": "1533年、ピサロがインカ皇帝アタワルパを処刑しインカ帝国を滅ぼす。銀山開発が始まる。",
        "terms": [
          "ピサロ",
          "インカ帝国",
          "アタワルパ",
          "ポトシ銀山"
        ],
        "patterns": [
          "帝国の拡大と崩壊",
          "交易で栄えた"
        ]
      },
      {
        "region": "mideast",
        "lat": 41.01,
        "lng": 28.97,
        "title": "オスマン帝国の最大版図（スレイマン1世）",
        "detail": "スレイマン1世がハンガリーを征服し（1526年）、ウィーンに迫る。東地中海・北アフリカを支配。",
        "terms": [
          "スレイマン1世",
          "オスマン帝国",
          "プレヴェザの海戦"
        ],
        "patterns": [
          "帝国の拡大と崩壊",
          "交易で栄えた"
        ]
      },
      {
        "region": "china",
        "lat": 39.93,
        "lng": 116.39,
        "title": "明の統治と倭寇・銀経済の発展",
        "detail": "永楽帝死後、海禁政策が強化。16世紀には倭寇が活発化し、日本銀が中国経済に流入。一条鞭法で銀納化。",
        "terms": [
          "明",
          "海禁政策",
          "倭寇",
          "一条鞭法"
        ],
        "patterns": [
          "交易で栄えた",
          "外圧が改革を生む"
        ]
      }
    ]
  },
  {
    "year": 1700,
    "label": "17〜18世紀",
    "theme": "「絶対王政と啓蒙の世紀」— 東西で「王の時代」が頂点を迎え、革命の種が蒔かれた",
    "events": [
      {
        "region": "europe",
        "lat": 48.8,
        "lng": 2.12,
        "title": "ルイ14世・絶対王政の全盛",
        "detail": "「朕は国家なり」ルイ14世がヴェルサイユ宮殿に宮廷文化を集約し絶対王政の頂点へ。一方でロックら啓蒙思想家が市民革命の理念を形成し始めた。",
        "terms": [
          "ルイ14世",
          "絶対王政",
          "ヴェルサイユ",
          "啓蒙思想"
        ],
        "patterns": [
          "帝国の拡大と崩壊",
          "知の革命"
        ]
      },
      {
        "region": "china",
        "lat": 39.93,
        "lng": 116.39,
        "title": "清朝の全盛（康熙帝・乾隆帝）",
        "detail": "康熙帝・雍正帝・乾隆帝の治世に清が最大版図へ。人口が4億に達し経済的繁栄を謳歌。しかし鎖国政策が近代化の遅れを生む。",
        "terms": [
          "康熙帝",
          "乾隆帝",
          "清朝",
          "台湾征服"
        ],
        "patterns": [
          "帝国の拡大と崩壊",
          "交易で栄えた"
        ]
      },
      {
        "region": "india",
        "lat": 27.17,
        "lng": 78.04,
        "title": "ムガル帝国の最大版図（アウラングゼーブ）",
        "detail": "アウラングゼーブがインド亜大陸のほぼ全域を支配するも、イスラーム強制政策がヒンドゥー諸侯の反発を招きマラーター同盟が台頭。帝国解体の始まり。",
        "terms": [
          "アウラングゼーブ",
          "ムガル帝国",
          "マラーター同盟",
          "ジズヤ復活"
        ],
        "patterns": [
          "帝国の拡大と崩壊",
          "宗教が統治を支えた"
        ]
      },
      {
        "region": "north_america",
        "lat": 42.36,
        "lng": -71.06,
        "title": "北アメリカ植民地の拡大・独立前夜",
        "detail": "イギリス・フランス・スペインが北米に植民地を建設。七年戦争後にイギリスが優位に立つが、植民地への課税強化が独立運動の火種となった。",
        "terms": [
          "イギリス植民地",
          "七年戦争",
          "ボストン茶会事件",
          "独立前夜"
        ],
        "patterns": [
          "外圧が改革を生む"
        ]
      }
    ]
  },
  {
    "year": 1850,
    "label": "19世紀",
    "theme": "「帝国主義の世紀」— 産業革命を武器にヨーロッパが世界を分割した",
    "events": [
      {
        "region": "europe",
        "lat": 53.48,
        "lng": -2.24,
        "title": "産業革命・「世界の工場」イギリス",
        "detail": "蒸気機関・紡績機械の普及でイギリスが世界初の工業国に。自由貿易主義の下、植民地を原料供給地・市場として組み込む帝国主義体制を構築。",
        "terms": [
          "産業革命",
          "蒸気機関",
          "自由貿易",
          "帝国主義"
        ],
        "patterns": [
          "交易で栄えた",
          "外圧が改革を生む"
        ]
      },
      {
        "region": "china",
        "lat": 23.13,
        "lng": 113.26,
        "title": "アヘン戦争・中国の半植民地化",
        "detail": "1840年アヘン戦争でイギリスに敗北し南京条約を締結。香港割譲・開港・関税自主権喪失。太平天国の乱・義和団事件と連続する中国の近代的苦難が始まる。",
        "terms": [
          "アヘン戦争",
          "南京条約",
          "香港割譲",
          "太平天国"
        ],
        "patterns": [
          "外圧が改革を生む",
          "帝国の拡大と崩壊"
        ]
      },
      {
        "region": "india",
        "lat": 28.64,
        "lng": 77.22,
        "title": "インド大反乱（セポイの反乱）・直轄統治へ",
        "detail": "1857年インド大反乱（セポイの反乱）が鎮圧されムガル帝国が正式に滅亡。インドは東インド会社からイギリス王室直轄となりヴィクトリア女王がインド皇帝を兼任。",
        "terms": [
          "インド大反乱",
          "セポイ",
          "東インド会社廃止",
          "ヴィクトリア女王"
        ],
        "patterns": [
          "外圧が改革を生む",
          "帝国の拡大と崩壊"
        ]
      },
      {
        "region": "africa",
        "lat": -25.75,
        "lng": 28.19,
        "title": "アフリカ分割・ベルリン会議",
        "detail": "1884〜85年のベルリン会議でヨーロッパ列強がアフリカを分割。1914年までにエチオピア・リベリアを除く全アフリカが植民地化された。",
        "terms": [
          "ベルリン会議",
          "アフリカ分割",
          "植民地化",
          "エチオピア"
        ],
        "patterns": [
          "帝国の拡大と崩壊"
        ]
      },
      {
        "region": "latin_america",
        "lat": -34.61,
        "lng": -58.37,
        "title": "ラテンアメリカ独立後の混乱",
        "detail": "1820年代に相次いで独立したラテンアメリカ諸国が政情不安・経済的従属に苦しむ。イギリス・アメリカ資本が農園・鉱山を支配するモノカルチャー経済が形成された。",
        "terms": [
          "モノカルチャー",
          "カウディーリョ",
          "モンロー主義",
          "従属経済"
        ],
        "patterns": [
          "外圧が改革を生む",
          "交易で栄えた"
        ]
      }
    ],
    "territoriesFile": "vienna_1815_major_powers",
    "territoriesYear": 1815,
    "colorMap": [
      {
        "match": "Austria",
        "color": "#f4870a",
        "label": "オーストリア帝国"
      },
      {
        "match": "Prussia",
        "color": "#4488ff",
        "label": "プロイセン王国"
      },
      {
        "match": "Russian",
        "color": "#44cc88",
        "label": "ロシア帝国"
      },
      {
        "match": "France",
        "color": "#cc4444",
        "label": "フランス王国"
      },
      {
        "match": "United Kingdom",
        "color": "#cc44cc",
        "label": "イギリス"
      }
    ]
  },
  {
    "year": 1920,
    "label": "20世紀前半",
    "theme": "「大戦後の再編」— 帝国が崩壊し、民族自決とファシズムが台頭した",
    "events": [
      {
        "region": "europe",
        "lat": 48.85,
        "lng": 2.35,
        "title": "ヴェルサイユ体制・ファシズムの台頭",
        "detail": "第一次大戦後のヴェルサイユ体制はドイツへの過酷な賠償を課した。世界恐慌（1929年）がファシズムを台頭させ、ヒトラー・ムッソリーニが権力を掌握。",
        "terms": [
          "ヴェルサイユ条約",
          "ヒトラー",
          "ファシズム",
          "世界恐慌"
        ],
        "patterns": [
          "外圧が改革を生む",
          "帝国の拡大と崩壊"
        ]
      },
      {
        "region": "mideast",
        "lat": 39.93,
        "lng": 32.86,
        "title": "アタテュルクのトルコ革命・中東の再編",
        "detail": "1923年オスマン帝国崩壊後、アタテュルクがトルコ共和国を建国。政教分離・近代化を推進。同時に中東各地でイギリス・フランスの委任統治が始まる。",
        "terms": [
          "アタテュルク",
          "トルコ共和国",
          "政教分離",
          "委任統治"
        ],
        "patterns": [
          "外圧が改革を生む",
          "帝国の拡大と崩壊"
        ]
      },
      {
        "region": "china",
        "lat": 39.93,
        "lng": 116.39,
        "title": "五四運動・中国共産党の成立",
        "detail": "1919年ヴェルサイユ条約での山東権益問題に抗議した五四運動が勃発。民族自決の機運が高まり1921年中国共産党が成立。国共合作と分裂が繰り返される。",
        "terms": [
          "五四運動",
          "中国共産党",
          "孫文",
          "国共合作"
        ],
        "patterns": [
          "外圧が改革を生む",
          "知の革命"
        ]
      },
      {
        "region": "india",
        "lat": 23.02,
        "lng": 72.57,
        "title": "ガンジーの非暴力不服従運動",
        "detail": "第一次大戦後、ガンジーが非暴力・不服従（サティヤーグラハ）でイギリス支配に抵抗。1930年の塩の行進が国際的注目を集め独立運動が本格化。",
        "terms": [
          "ガンジー",
          "非暴力不服従",
          "塩の行進",
          "サティヤーグラハ"
        ],
        "patterns": [
          "外圧が改革を生む"
        ]
      },
      {
        "region": "north_america",
        "lat": 40.71,
        "lng": -74.01,
        "title": "世界恐慌・ニューディール政策",
        "detail": "1929年のウォール街暴落が世界恐慌を引き起こした。ルーズベルト大統領のニューディール政策が政府による経済介入の先駆けとなり各国に影響を与えた。",
        "terms": [
          "世界恐慌",
          "ニューディール",
          "ルーズベルト",
          "ケインズ経済学"
        ],
        "patterns": [
          "外圧が改革を生む"
        ]
      }
    ]
  }
]